{"item_id":"0CLCzdedGT2DPjkYM52Tqg","name":"Brewsters Brewing Company & Restaurant","address":"15820 87th Avenue NW","city":"Edmonton","state":"AB","postal_code":"T5R 5W9","latitude":53.5201345852,"longitude":-113.5962501821,"stars":3.5,"review_count":37,"is_open":true,"optional":{"RestaurantsReservations":"True","RestaurantsTakeOut":"True","OutdoorSeating":"True","RestaurantsGoodForGroups":"True","RestaurantsAttire":"casual","Caters":"False","NoiseLevel":"average","RestaurantsPriceRange2":"2","HasTV":"True","GoodForKids":"True","BikeParking":"True","Ambience":"{touristy: False, hipster: False, romantic: False, intimate: False, trendy: False, upscale: False, classy: True, casual: True}","RestaurantsDelivery":"True","GoodForMeal":"{dessert: False, latenight: False, lunch: True, dinner: True, brunch: False, breakfast: False}","RestaurantsTableService":"True","WheelchairAccessible":"True","WiFi":"free","BusinessParking":"{garage: False, street: True, validated: False, lot: True, valet: False}","Alcohol":"full_bar","HappyHour":"True","BYOB":"False"},"categories":["American (Traditional)"," Restaurants"," Breweries"," Food"],"hours":{"Monday":"11:30-22:0","Tuesday":"11:30-23:0","Wednesday":"11:30-23:0","Thursday":"11:30-23:0","Friday":"11:30-23:0","Saturday":"11:0-23:0","Sunday":"11:0-22:0"}}
{"item_id":"0IG9w6YCkh-z5pnfSip6Nw","name":"Tasty Noodle","address":"3203 Calgary Trail","city":"Edmonton","state":"AB","postal_code":"T6J 5X8","latitude":53.4642729002,"longitude":-113.4947454929,"stars":3.5,"review_count":64,"is_open":true,"optional":{"RestaurantsAttire":"casual","RestaurantsPriceRange2":"2","GoodForKids":"True","Alcohol":"full_bar","NoiseLevel":"average","Ambience":"{romantic: False, intimate: False, classy: False, hipster: False, divey: False, touristy: False, trendy: False, upscale: False, casual: True}","RestaurantsReservations":"True","Caters":"False","RestaurantsTakeOut":"True","BusinessParking":"{garage: False, street: False, validated: False, lot: True, valet: False}","RestaurantsGoodForGroups":"True","OutdoorSeating":"True","BikeParking":"True","RestaurantsTableService":"True","GoodForMeal":"{dessert: False, latenight: False, lunch: True, dinner: True, brunch: False, breakfast: False}","RestaurantsDelivery":"True","WiFi":"no","HasTV":"True"},"categories":["Chinese"," Restaurants"," Dim Sum"],"hours":{"Monday":"10:30-22:0","Tuesday":"10:30-22:0","Wednesday":"10:30-22:0","Thursday":"10:30-22:0","Friday":"10:0-22:30","Saturday":"10:0-22:30","Sunday":"9:0-22:0"}}
{"item_id":"2Z8LWDUbrUbe-o3KZE2r7Q","name":"Dagu Rice Noodle","address":"10408 Jasper Avenue","city":"Edmonton","state":"AB","postal_code":"T5J 1Z3","latitude":53.5412147,"longitude":-113.4995711,"stars":4.5,"review_count":10,"is_open":true,"optional":{"RestaurantsPriceRange2":"2","Ambience":"{touristy: False, hipster: False, romantic: False, intimate: False, trendy: False, upscale: False, classy: False, casual: False}"},"categories":["Restaurants"," Chinese"," Noodles"],"hours":{"Monday":"11:0-21:0","Tuesday":"11:0-21:0","Wednesday":"11:0-21:0","Thursday":"11:0-21:0","Friday":"11:0-22:0","Saturday":"11:0-22:0","Sunday":"11:0-21:0"}}
{"item_id":"2fTfpN5SggLgW4LlzptMPg","name":"Tzin Wine & Tapas","address":"10115 104 Street Northwest","city":"Edmonton","state":"AB","postal_code":"T5J 0Z9","latitude":53.5410214625,"longitude":-113.4992408752,"stars":4.5,"review_count":116,"is_open":true,"optional":{"BikeParking":"True","RestaurantsReservations":"True","NoiseLevel":"average","BusinessParking":"{garage: False, street: True, validated: False, lot: False, valet: False}","RestaurantsAttire":"casual","GoodForKids":"False","Alcohol":"full_bar","RestaurantsPriceRange2":"3","Caters":"False","WiFi":"free","RestaurantsDelivery":"False","Ambience":"{touristy: False, hipster: False, romantic: False, intimate: True, trendy: True, upscale: False, classy: True, casual: False}","OutdoorSeating":"True","RestaurantsTakeOut":"True","HappyHour":"False","GoodForDancing":"False","BestNights":"{monday: False, tuesday: False, friday: True, wednesday: False, thursday: True, sunday: False, saturday: True}","Music":"{dj: False, background_music: False, no_music: False, jukebox: False, live: False, video: False, karaoke: False}","RestaurantsGoodForGroups":"False","GoodForMeal":"{breakfast: False, brunch: False, lunch: False, dinner: True, latenight: None, dessert: None}","HasTV":"True"},"categories":["Nightlife"," Beer"," Wine & Spirits"," Tapas Bars"," Wine Bars"," Restaurants"," Food"," Bars"],"hours":{"Tuesday":"16:0-23:0","Wednesday":"16:0-23:0","Thursday":"16:0-23:0","Friday":"16:0-0:0","Saturday":"16:0-0:0"}}
{"item_id":"3gTZAOmML02T1L5gYIHYqQ","name":"Kabsa  The Ultimate Cuisine","address":"5932 153 Avenue NW","city":"Edmonton","state":"AB","postal_code":"T5Y 2W1","latitude":53.616357,"longitude":-113.431281,"stars":4.0,"review_count":24,"is_open":true,"optional":{"Caters":"True","RestaurantsReservations":"True","RestaurantsPriceRange2":"2","NoiseLevel":"average","RestaurantsGoodForGroups":"True","GoodForKids":"True","RestaurantsAttire":"casual","BusinessParking":"{garage: False, street: False, validated: False, lot: False, valet: False}","RestaurantsTakeOut":"True","Alcohol":"none","GoodForMeal":"{dessert: False, latenight: True, lunch: True, dinner: True, brunch: False, breakfast: False}","RestaurantsDelivery":"True","BikeParking":"True","HasTV":"True","WiFi":"no","OutdoorSeating":"False","Ambience":"{touristy: None, hipster: None, romantic: None, intimate: None, trendy: None, upscale: None, classy: None, casual: True}"},"categories":["Middle Eastern"," Restaurants"," Food"],"hours":{"Monday":"11:30-23:0","Tuesday":"11:30-23:0","Wednesday":"11:30-23:0","Thursday":"11:30-23:0","Friday":"11:30-23:0","Saturday":"11:30-23:0","Sunday":"11:30-23:0"}}
{"item_id":"71MulAHeKm5p2kIIGYEwpA","name":"Italian Centre Shop","address":"17010 90 Avenue NW","city":"Edmonton","state":"AB","postal_code":"T5T 1L6","latitude":53.52638,"longitude":-113.616426,"stars":4.5,"review_count":41,"is_open":true,"optional":{"Caters":"True","GoodForKids":"True","OutdoorSeating":"False","RestaurantsPriceRange2":"2","BikeParking":"True","RestaurantsTakeOut":"True","BusinessParking":"{garage: False, street: False, validated: False, lot: True, valet: False}","RestaurantsDelivery":"True"},"categories":["Bakeries"," Italian"," Restaurants"," Food"," Grocery"," Specialty Food"," Patisserie\/Cake Shop"," Delicatessen"],"hours":{"Monday":"0:0-0:0","Tuesday":"9:0-21:0","Wednesday":"9:0-21:0","Thursday":"9:0-21:0","Friday":"9:0-21:0","Saturday":"9:0-21:0","Sunday":"9:0-21:0"}}
{"item_id":"7kko-9WTh53VZ_PmrffrSQ","name":"Tasty Tom's","address":"9965 82 Avenue NW","city":"Edmonton","state":"AB","postal_code":"T6E 1Z1","latitude":53.517857954,"longitude":-113.4884910012,"stars":4.0,"review_count":67,"is_open":true,"optional":{"GoodForKids":"True","RestaurantsGoodForGroups":"True","WiFi":"free","OutdoorSeating":"True","RestaurantsReservations":"False","RestaurantsPriceRange2":"2","RestaurantsDelivery":"False","Caters":"False","RestaurantsTakeOut":"True","Alcohol":"beer_and_wine","RestaurantsAttire":"casual","BikeParking":"True","NoiseLevel":"quiet","BusinessParking":"{garage: False, street: True, validated: False, lot: False, valet: False}","Ambience":"{hipster: None, casual: True, touristy: False, trendy: False, intimate: False, romantic: False, classy: False, upscale: False}","HasTV":"True","GoodForMeal":"{breakfast: True, brunch: True, lunch: True, dinner: None, latenight: False, dessert: False}"},"categories":["Breakfast & Brunch"," Burgers"," American (New)"," Diners"," Restaurants"," Modern European"," Canadian (New)"],"hours":{"Monday":"8:0-15:0","Wednesday":"8:0-15:0","Thursday":"8:0-15:0","Friday":"8:0-17:0","Saturday":"8:0-17:0","Sunday":"8:0-15:0"}}
{"item_id":"7sak6hzo7YKcgDsngUov1A","name":"Olly Fresco's","address":"10030-107th Street NW, Suite 101, South Tower","city":"Edmonton","state":"AB","postal_code":"T5J 3E4","latitude":53.5396816,"longitude":-113.5052005,"stars":3.5,"review_count":16,"is_open":true,"optional":{"RestaurantsPriceRange2":"2","RestaurantsTakeOut":"True","BusinessParking":"{garage: False, street: True, validated: False, lot: False, valet: False}","BikeParking":"True","Caters":"True"},"categories":["Delis"," Food"," Restaurants"," Do-It-Yourself Food"," Breakfast & Brunch"],"hours":{"Monday":"6:30-16:0","Tuesday":"6:30-16:0","Wednesday":"6:30-16:0","Thursday":"6:30-16:0","Friday":"6:30-16:0"}}
{"item_id":"8p9TNDj2r-rf1pPmBSc5wQ","name":"Boston Pizza","address":"11023 23 Avenue NW","city":"Edmonton","state":"AB","postal_code":"T6J 6P9","latitude":53.4534067385,"longitude":-113.5146677196,"stars":2.0,"review_count":22,"is_open":true,"optional":{"WiFi":"free","GoodForKids":"True","OutdoorSeating":"False","HasTV":"True","Alcohol":"none","RestaurantsGoodForGroups":"True","RestaurantsTakeOut":"True","RestaurantsPriceRange2":"2","BusinessParking":"{garage: False, street: False, validated: False, lot: False, valet: False}","RestaurantsDelivery":"True","NoiseLevel":"loud","Ambience":"{romantic: False, intimate: False, classy: False, hipster: False, divey: False, touristy: False, trendy: False, upscale: False, casual: True}","BikeParking":"True","Caters":"False","RestaurantsAttire":"casual","RestaurantsReservations":"True"},"categories":["Pizza"," Chicken Wings"," Restaurants"," Italian"],"hours":{"Monday":"11:0-22:0","Tuesday":"11:0-22:0","Wednesday":"11:0-22:0","Thursday":"11:0-22:0","Friday":"11:0-22:0","Saturday":"11:0-22:0","Sunday":"11:0-22:0"}}
{"item_id":"9Udgv_7h8oj6NXq5hQeJow","name":"Old Beverly Cafe In & Out","address":"3908 118 Avenue","city":"Edmonton","state":"AB","postal_code":"T5W 0Z9","latitude":53.5705074,"longitude":-113.4021041,"stars":4.0,"review_count":9,"is_open":true,"optional":{"RestaurantsTakeOut":"True","RestaurantsDelivery":"False","BusinessParking":"{garage: False, street: False, validated: False, lot: False, valet: False}","Ambience":"{touristy: False, hipster: False, romantic: False, intimate: False, trendy: False, upscale: False, classy: False, casual: False}","GoodForMeal":"{dessert: False, latenight: False, lunch: False, dinner: False, brunch: False, breakfast: False}","RestaurantsGoodForGroups":"True"},"categories":["Coffee & Tea"," Food"," Sandwiches"," Restaurants"," Cafes"],"hours":{"Monday":"9:30-19:0","Tuesday":"9:30-20:0","Wednesday":"9:30-19:0","Thursday":"9:30-19:0","Friday":"9:30-19:0","Sunday":"9:0-16:0"}}
{"item_id":"ASJH8IDBdX_f5yOX0XEfYA","name":"Sam's Pizza and Donair","address":"18236 89 Avenue NW","city":"Edmonton","state":"AB","postal_code":"T5T 2K6","latitude":53.523834,"longitude":-113.639551,"stars":4.5,"review_count":19,"is_open":true,"optional":{"RestaurantsTakeOut":"True","RestaurantsReservations":"True","RestaurantsDelivery":"True","GoodForKids":"True"},"categories":["Restaurants"," Pizza"],"hours":{"Monday":"16:0-23:0","Wednesday":"16:0-23:0","Thursday":"16:0-23:0","Friday":"16:0-1:0","Saturday":"16:0-1:0","Sunday":"15:0-23:0"}}
{"item_id":"Aa0lDzrdkiiYGJfKjJxcww","name":"Coliseum Pizza & Steak","address":"8015 118 Avenue NW","city":"Edmonton","state":"AB","postal_code":"T5B 0R7","latitude":53.5702532,"longitude":-113.4649479,"stars":3.5,"review_count":68,"is_open":true,"optional":{"RestaurantsPriceRange2":"2","HasTV":"True","GoodForKids":"True","RestaurantsAttire":"casual","BusinessParking":"{garage: False, street: False, validated: False, lot: True, valet: False}","RestaurantsDelivery":"False","NoiseLevel":"average","RestaurantsGoodForGroups":"True","RestaurantsTakeOut":"True","Alcohol":"full_bar","OutdoorSeating":"False","RestaurantsReservations":"True","Ambience":"{romantic: False, intimate: False, classy: False, hipster: False, divey: False, touristy: False, trendy: False, upscale: False, casual: True}","GoodForMeal":"{dessert: False, latenight: False, lunch: None, dinner: True, brunch: False, breakfast: False}","Caters":"False","BikeParking":"True","WiFi":"free"},"categories":["Pizza"," Restaurants"," Steakhouses"],"hours":{"Monday":"11:0-20:0","Tuesday":"11:0-20:0","Wednesday":"11:0-20:0","Thursday":"11:0-20:0","Friday":"11:0-20:0","Saturday":"15:0-20:0","Sunday":"15:0-20:0"}}
{"item_id":"AgN2wYfkqbHGvWN3CNdydA","name":"Buster's Pizza & Donair","address":"319 Allard Boulevard SW","city":"Edmonton","state":"AB","postal_code":"T6W 1A8","latitude":53.3969781497,"longitude":-113.5297982796,"stars":3.5,"review_count":6,"is_open":true,"optional":{"RestaurantsTakeOut":"True","RestaurantsDelivery":"True"},"categories":["Food"," Donairs"," Pizza"," Restaurants"," Poutineries"," Mediterranean"],"hours":{"Monday":"16:0-0:0","Tuesday":"16:0-0:0","Wednesday":"16:0-0:0","Thursday":"16:0-0:0","Friday":"16:0-3:0","Saturday":"16:0-3:0","Sunday":"16:0-0:0"}}
{"item_id":"B3JF06ctShiYJeg1FyJ5jA","name":"Remedy Cafe","address":"8631 109 St NW","city":"Edmonton","state":"AB","postal_code":"T6G 1E8","latitude":53.5228042,"longitude":-113.5117214,"stars":3.5,"review_count":127,"is_open":true,"optional":{"RestaurantsPriceRange2":"2","RestaurantsGoodForGroups":"True","WiFi":"free","BikeParking":"True","NoiseLevel":"average","RestaurantsTakeOut":"True","BestNights":"{monday: False, tuesday: False, friday: True, wednesday: True, thursday: True, sunday: False, saturday: False}","Music":"{dj: False, background_music: True, no_music: False, jukebox: False, live: False, video: False, karaoke: False}","GoodForDancing":"False","RestaurantsReservations":"False","Smoking":"no","OutdoorSeating":"True","Caters":"True","RestaurantsTableService":"False","GoodForKids":"True","Ambience":"{touristy: False, hipster: True, romantic: False, intimate: False, trendy: None, upscale: False, classy: False, casual: True}","BusinessParking":"{garage: False, street: None, validated: False, lot: None, valet: False}","Alcohol":"beer_and_wine","HappyHour":"False","GoodForMeal":"{dessert: False, latenight: False, lunch: False, dinner: False, brunch: False, breakfast: False}","CoatCheck":"False","RestaurantsDelivery":"True","HasTV":"True"},"categories":["Indian"," Desserts"," Cafes"," Restaurants"," Food"," Coffee & Tea"," Nightlife"," Lounges"," Bars"],"hours":{"Monday":"9:0-22:0","Tuesday":"9:0-22:0","Wednesday":"9:0-22:0","Thursday":"9:0-22:0","Friday":"9:0-22:0","Saturday":"9:0-22:0","Sunday":"9:0-22:0"}}
{"item_id":"Cr-uaPrfvG7tvqzLGAGErA","name":"Kyoto Japanese Cuisine","address":"8701 109 Street NW","city":"Edmonton","state":"AB","postal_code":"T6G 2L5","latitude":53.5231333193,"longitude":-113.5113531433,"stars":3.5,"review_count":58,"is_open":true,"optional":{"RestaurantsAttire":"casual","RestaurantsReservations":"True","NoiseLevel":"average","RestaurantsGoodForGroups":"True","RestaurantsPriceRange2":"2","OutdoorSeating":"False","Alcohol":"full_bar","GoodForKids":"True","BikeParking":"True","RestaurantsTakeOut":"True","RestaurantsDelivery":"False","BusinessParking":"{garage: False, street: False, validated: False, lot: True, valet: False}","WiFi":"no","Caters":"False","Ambience":"{touristy: False, hipster: False, romantic: False, intimate: False, trendy: False, upscale: False, classy: True, casual: True}","HasTV":"True","GoodForMeal":"{dessert: False, latenight: False, lunch: True, dinner: True, brunch: False, breakfast: False}"},"categories":["Japanese"," Restaurants"," Sushi Bars"," Asian Fusion"],"hours":{"Monday":"11:0-22:0","Tuesday":"11:0-22:0","Wednesday":"11:0-22:0","Thursday":"11:0-22:0","Friday":"11:0-23:0","Saturday":"11:0-23:0","Sunday":"11:0-22:0"}}
{"item_id":"CyGxCUdTRGUPKGOgzC6Zug","name":"Hudsons Canada's Pub","address":"10307 Whyte Avenue","city":"Edmonton","state":"AB","postal_code":"T6E 1Z9","latitude":53.5178491,"longitude":-113.4951883,"stars":3.5,"review_count":54,"is_open":true,"optional":{"GoodForKids":"False","RestaurantsPriceRange2":"2","NoiseLevel":"loud","Alcohol":"full_bar","HasTV":"True","RestaurantsDelivery":"False","RestaurantsGoodForGroups":"True","OutdoorSeating":"True","BusinessParking":"{garage: False, street: True, validated: False, lot: False, valet: False}","BikeParking":"True","RestaurantsTakeOut":"True","RestaurantsAttire":"casual","GoodForDancing":"True","RestaurantsReservations":"True","WheelchairAccessible":"True","Smoking":"no","RestaurantsTableService":"True","Music":"{dj: False, live: False, jukebox: None, video: False, background_music: False, karaoke: False, no_music: False}","BestNights":"{monday: False, tuesday: False, wednesday: False, thursday: False, friday: True, saturday: True, sunday: True}","HappyHour":"True","WiFi":"free","Ambience":"{hipster: None, casual: True, touristy: None, trendy: False, intimate: False, romantic: False, classy: False, upscale: False}","GoodForMeal":"{breakfast: False, brunch: None, lunch: None, dinner: False, latenight: True, dessert: False}"},"categories":["Chicken Wings"," Canadian (New)"," Restaurants"," Sports Bars"," Pubs"," Bars"," Burgers"," Nightlife"],"hours":{"Monday":"11:0-2:0","Tuesday":"11:0-2:0","Wednesday":"11:0-2:0","Thursday":"11:0-2:0","Friday":"11:0-2:0","Saturday":"11:0-2:0","Sunday":"11:0-2:0"}}
{"item_id":"EyoGUM01HS9kemQcnTRLIw","name":"Sofra Restaurant","address":"10345 106 Street NW, Suite 108","city":"Edmonton","state":"AB","postal_code":"T5J 1H8","latitude":53.545705,"longitude":-113.502599,"stars":4.5,"review_count":75,"is_open":true,"optional":{"RestaurantsPriceRange2":"3","BusinessParking":"{garage: False, street: True, validated: False, lot: False, valet: False}","RestaurantsGoodForGroups":"True","RestaurantsAttire":"casual","GoodForKids":"False","RestaurantsReservations":"True","BikeParking":"True","WiFi":"no","HasTV":"False","Alcohol":"full_bar","GoodForMeal":"{dessert: False, latenight: False, lunch: False, dinner: True, brunch: False, breakfast: False}","RestaurantsTakeOut":"True","RestaurantsTableService":"True","RestaurantsDelivery":"False","Caters":"False","NoiseLevel":"average","OutdoorSeating":"False","Ambience":"{touristy: False, hipster: False, romantic: False, intimate: False, trendy: False, upscale: False, classy: True, casual: False}"},"categories":["Turkish"," Restaurants"],"hours":{"Tuesday":"17:0-21:30","Wednesday":"17:0-21:30","Thursday":"17:0-21:30","Friday":"17:0-22:0","Saturday":"17:0-22:0","Sunday":"17:0-21:30"}}
{"item_id":"GpFRwCHN0RI8yFbcfXjfUg","name":"V Sandwiches","address":"10127 100A Street NW","city":"Edmonton","state":"AB","postal_code":"T5J","latitude":53.5417173,"longitude":-113.4919398,"stars":3.5,"review_count":9,"is_open":true,"optional":{"RestaurantsAttire":"casual","BikeParking":"True","Ambience":"{romantic: False, intimate: False, classy: False, hipster: False, divey: False, touristy: False, trendy: False, upscale: False, casual: False}","BusinessParking":"{garage: False, street: False, validated: False, lot: False, valet: False}","RestaurantsTakeOut":"True","RestaurantsPriceRange2":"2","RestaurantsGoodForGroups":"True","GoodForKids":"True","RestaurantsDelivery":"True","RestaurantsReservations":"False","GoodForMeal":"{dessert: False, latenight: False, lunch: False, dinner: False, brunch: False, breakfast: False}","OutdoorSeating":"None","WiFi":"no","HasTV":"True"},"categories":["Vietnamese"," Sandwiches"," Restaurants"],"hours":{"Monday":"10:0-19:30","Tuesday":"10:0-19:30","Wednesday":"10:0-19:30","Thursday":"10:0-19:30","Friday":"10:0-19:30"}}
{"item_id":"Im5XYJ8jP3s85Lna48HcWA","name":"Pizza 73","address":"3520 137 Avenue NW","city":"Edmonton","state":"AB","postal_code":"T5Y 1Y7","latitude":53.5999605,"longitude":-113.395716,"stars":1.0,"review_count":6,"is_open":true,"optional":{"RestaurantsDelivery":"True","RestaurantsTakeOut":"True","RestaurantsReservations":"False"},"categories":["Pizza"," Restaurants"],"hours":{"Monday":"16:0-2:0","Tuesday":"16:0-2:0","Wednesday":"16:0-2:0","Thursday":"11:0-2:0","Friday":"11:0-3:0","Saturday":"11:0-3:0","Sunday":"11:0-0:0"}}
{"item_id":"Iw7uhUS9D5gXESPr_DVHaA","name":"Belgravia Hub","address":"7609 115 Street  NW","city":"Edmonton","state":"AB","postal_code":"T6G 0M2","latitude":53.5125175,"longitude":-113.5285441,"stars":4.0,"review_count":27,"is_open":true,"optional":{"Alcohol":"full_bar","RestaurantsAttire":"casual","RestaurantsReservations":"True","WiFi":"no","GoodForKids":"False","BikeParking":"True","RestaurantsPriceRange2":"2","RestaurantsDelivery":"False","RestaurantsGoodForGroups":"True","RestaurantsTakeOut":"True","GoodForMeal":"{dessert: False, latenight: False, lunch: False, dinner: True, brunch: False, breakfast: False}","NoiseLevel":"average","Ambience":"{touristy: False, hipster: None, romantic: None, intimate: None, trendy: None, upscale: None, classy: None, casual: True}","BusinessParking":"{garage: False, street: True, validated: False, lot: True, valet: False}","HasTV":"True","OutdoorSeating":"False"},"categories":["Restaurants"," Canadian (New)"],"hours":{"Tuesday":"16:30-22:0","Wednesday":"16:30-22:0","Thursday":"16:30-22:0","Friday":"16:30-23:0","Saturday":"16:30-23:0","Sunday":"17:0-21:0"}}
{"item_id":"JI3-QZwm6vihIFBcekgyaA","name":"Matrix Hotel","address":"10640 100 Avenue","city":"Edmonton","state":"AB","postal_code":"T5J 3N8","latitude":53.5393127726,"longitude":-113.5046482086,"stars":4.0,"review_count":55,"is_open":true,"optional":{"WiFi":"free","RestaurantsPriceRange2":"3"},"categories":["International"," Hotels & Travel"," Hotels"," Restaurants"," Event Planning & Services"],"hours":{"Monday":"0:0-0:0","Tuesday":"0:0-0:0","Wednesday":"0:0-0:0","Thursday":"0:0-0:0","Friday":"0:0-0:0","Saturday":"0:0-0:0","Sunday":"0:0-0:0"}}
{"item_id":"JfGfqCnk0-Tnf6PlahPUJQ","name":"Burger Village","address":"6187 Currents Drive NW","city":"Edmonton","state":"AB","postal_code":"T6W 0L9","latitude":53.436403,"longitude":-113.604288,"stars":4.0,"review_count":10,"is_open":true,"optional":{"BusinessParking":"{garage: False, street: True, validated: False, lot: False, valet: False}","WheelchairAccessible":"True","BikeParking":"True","Caters":"False","OutdoorSeating":"False","Alcohol":"beer_and_wine","WiFi":"free","RestaurantsReservations":"True","HasTV":"True","RestaurantsTakeOut":"True","DogsAllowed":"False","RestaurantsTableService":"True","HappyHour":"True","RestaurantsDelivery":"True"},"categories":["Restaurants"," Burgers"],"hours":{"Monday":"11:0-22:0","Tuesday":"11:0-22:0","Wednesday":"11:0-22:0","Thursday":"11:0-22:0","Friday":"11:0-22:0","Saturday":"11:0-22:0","Sunday":"11:0-22:0"}}
{"item_id":"KZ5w1iPH1bSnf-wBEYgtQQ","name":"Rice Bowl Deluxe","address":"8910 149 Street NW","city":"Edmonton","state":"AB","postal_code":"T5R 1B8","latitude":53.5216024,"longitude":-113.5785097,"stars":3.0,"review_count":5,"is_open":true,"optional":{"BusinessParking":"{garage: False, street: False, validated: False, lot: False, valet: False}","RestaurantsTakeOut":"True","RestaurantsReservations":"False","RestaurantsDelivery":"True"},"categories":["Restaurants"," Asian Fusion"],"hours":{"Monday":"11:0-22:0","Tuesday":"11:0-22:0","Wednesday":"11:0-22:0","Thursday":"11:0-22:0","Friday":"11:0-22:0","Saturday":"11:0-22:0","Sunday":"11:0-21:0"}}
{"item_id":"O9W0Qs32RL5kU2_9oqZCKQ","name":"Pho Hoan Pasteur","address":"6566 - 28 Avenue NW","city":"Edmonton","state":"AB","postal_code":"T6K 4C8","latitude":53.4596423757,"longitude":-113.4331740439,"stars":3.5,"review_count":32,"is_open":true,"optional":{"NoiseLevel":"average","RestaurantsGoodForGroups":"True","RestaurantsPriceRange2":"2","RestaurantsTableService":"False","OutdoorSeating":"False","GoodForMeal":"{dessert: False, latenight: False, lunch: True, dinner: False, brunch: False, breakfast: False}","HasTV":"True","BikeParking":"True","WheelchairAccessible":"False","HappyHour":"False","RestaurantsTakeOut":"True","RestaurantsDelivery":"False","RestaurantsAttire":"casual","GoodForKids":"True","BusinessParking":"{garage: False, street: False, validated: False, lot: False, valet: False}","RestaurantsReservations":"True","Ambience":"{touristy: None, hipster: False, romantic: None, intimate: None, trendy: None, upscale: None, classy: None, casual: None}","WiFi":"free"},"categories":["Vietnamese"," Restaurants"],"hours":{"Tuesday":"10:30-20:30","Wednesday":"10:30-20:30","Thursday":"10:30-20:30","Friday":"10:30-20:30","Saturday":"10:30-20:30","Sunday":"10:30-20:30"}}
{"item_id":"PJeoajci4MBVuyAOQet57g","name":"Dover Kam Kitchen","address":"120 Street, Suite 12704","city":"Edmonton","state":"AB","postal_code":"T5E","latitude":53.5850722,"longitude":-113.5290706,"stars":3.0,"review_count":9,"is_open":true,"optional":{"GoodForMeal":"{dessert: False, latenight: False, lunch: False, dinner: False, brunch: False, breakfast: False}","RestaurantsTakeOut":"True","GoodForKids":"False","RestaurantsAttire":"casual","RestaurantsGoodForGroups":"False","RestaurantsPriceRange2":"1","RestaurantsDelivery":"True","BusinessParking":"{garage: False, street: False, validated: False, lot: False, valet: False}"},"categories":["Chinese"," Restaurants"],"hours":{"Monday":"10:0-21:0","Tuesday":"10:0-21:0","Wednesday":"10:0-21:0","Thursday":"10:0-21:0","Friday":"10:0-21:0","Saturday":"10:0-21:0","Sunday":"10:0-21:0"}}
{"item_id":"PjWv-WZKYtkKbqOG0y83ZQ","name":"Thien An Restaurant","address":"7304 101 Avenue NW","city":"Edmonton","state":"AB","postal_code":"T6A 0J2","latitude":53.5414485,"longitude":-113.4403158,"stars":4.0,"review_count":25,"is_open":true,"optional":{"BusinessParking":"{garage: False, street: True, validated: False, lot: False, valet: False}","BikeParking":"True","RestaurantsPriceRange2":"2","OutdoorSeating":"False","GoodForKids":"True","RestaurantsGoodForGroups":"True","HasTV":"True","RestaurantsTableService":"True","GoodForMeal":"{dessert: False, latenight: False, lunch: True, dinner: True, brunch: False, breakfast: False}","RestaurantsAttire":"casual","RestaurantsDelivery":"False","Ambience":"{touristy: False, hipster: False, romantic: False, intimate: False, trendy: False, upscale: False, classy: False, casual: True}","Alcohol":"beer_and_wine","RestaurantsTakeOut":"True","WiFi":"free","RestaurantsReservations":"True","Caters":"False","NoiseLevel":"quiet"},"categories":["Vietnamese"," Restaurants"],"hours":{"Monday":"10:30-21:0","Tuesday":"10:30-21:0","Wednesday":"10:30-21:0","Thursday":"10:30-21:0","Friday":"10:30-21:30","Saturday":"10:30-21:30","Sunday":"10:30-20:0"}}
{"item_id":"QMaXUlBsA0SLiYZOzDAjVQ","name":"Nam Kitchen Express","address":"9316 - 137 Avenue NW","city":"Edmonton","state":"AB","postal_code":"T5E 6C1","latitude":53.6001157,"longitude":-113.4858681,"stars":4.0,"review_count":13,"is_open":true,"optional":{"WiFi":"no","RestaurantsDelivery":"True","RestaurantsTableService":"False","GoodForMeal":"{dessert: False, latenight: False, lunch: False, dinner: False, brunch: False, breakfast: False}","RestaurantsAttire":"casual","HasTV":"True","RestaurantsTakeOut":"True","BusinessParking":"{garage: False, street: False, validated: False, lot: True, valet: False}","RestaurantsGoodForGroups":"False","GoodForKids":"True","OutdoorSeating":"False","RestaurantsReservations":"False","Ambience":"{romantic: False, intimate: False, classy: False, hipster: False, divey: False, touristy: False, trendy: False, upscale: False, casual: False}","NoiseLevel":"average","RestaurantsPriceRange2":"2"},"categories":["Vietnamese"," Restaurants"," Chinese"," Fast Food"],"hours":{"Monday":"11:0-21:0","Tuesday":"11:0-21:0","Wednesday":"11:0-15:0","Thursday":"11:0-21:0","Friday":"11:0-21:0","Saturday":"11:0-21:0","Sunday":"11:0-20:0"}}
{"item_id":"QehLpDI-ZdJJLu5dobDdxg","name":"Mundare Sausage House","address":"4824 118 Avenue NW","city":"Edmonton","state":"AB","postal_code":"T5W 1B4","latitude":53.570634,"longitude":-113.416455,"stars":4.0,"review_count":7,"is_open":true,"optional":{"RestaurantsReservations":"False","BusinessParking":"{garage: False, street: False, validated: False, lot: True, valet: False}","GoodForMeal":"{dessert: False, latenight: False, lunch: False, dinner: False, brunch: False, breakfast: False}","RestaurantsTakeOut":"True"},"categories":["Ukrainian"," Restaurants"],"hours":{"Monday":"9:0-16:0","Tuesday":"9:0-17:0","Wednesday":"9:0-17:0","Thursday":"9:0-17:0","Friday":"8:30-15:0","Saturday":"9:0-17:0"}}
{"item_id":"RY8I-VP7g-BMfGOSMA2lgg","name":"Smitty's Family Restaurant","address":"66 Street NW, Suite 2331","city":"Edmonton","state":"AB","postal_code":"T6K 4B4","latitude":53.4548546821,"longitude":-113.4293917044,"stars":3.0,"review_count":5,"is_open":true,"optional":{"GoodForKids":"True","RestaurantsDelivery":"False","GoodForMeal":"{dessert: False, latenight: False, lunch: False, dinner: False, brunch: False, breakfast: False}","RestaurantsGoodForGroups":"True","RestaurantsAttire":"casual","RestaurantsReservations":"False"},"categories":["Restaurants"," American (Traditional)"],"hours":{"Monday":"7:0-21:0","Tuesday":"7:0-21:0","Wednesday":"7:0-21:0","Thursday":"7:0-21:0","Friday":"7:0-21:0","Saturday":"7:0-18:0","Sunday":"8:0-18:0"}}
{"item_id":"RuBWR6CAgVi7iWR8LHUi6A","name":"Lee House","address":"10704 97 Street NW","city":"Edmonton","state":"AB","postal_code":"T5H 2L9","latitude":53.551925,"longitude":-113.4896661,"stars":4.0,"review_count":30,"is_open":true,"optional":{"RestaurantsTableService":"True","GoodForMeal":"{dessert: False, latenight: False, lunch: False, dinner: False, brunch: False, breakfast: False}","RestaurantsReservations":"True","OutdoorSeating":"False","RestaurantsTakeOut":"True","RestaurantsAttire":"casual","NoiseLevel":"average","RestaurantsGoodForGroups":"True","GoodForKids":"True","Caters":"False","BikeParking":"True","BusinessParking":"{garage: False, street: False, validated: False, lot: False, valet: False}","RestaurantsPriceRange2":"2","Alcohol":"beer_and_wine","HasTV":"True","Ambience":"{touristy: False, hipster: False, romantic: False, intimate: False, trendy: False, upscale: False, classy: True, casual: False}","RestaurantsDelivery":"True"},"categories":["Barbeque"," Asian Fusion"," Restaurants"," Korean"],"hours":{"Monday":"11:0-22:0","Tuesday":"11:0-22:0","Wednesday":"11:0-22:0","Thursday":"11:0-22:0","Friday":"11:0-22:0","Saturday":"11:0-22:0"}}
{"item_id":"RuEIK45gBF5iDbYoSa9tOA","name":"The Underground Tap & Grill","address":"10004 Jasper Avenue NW","city":"Edmonton","state":"AB","postal_code":"T5J 1R3","latitude":53.5412956,"longitude":-113.4907434,"stars":3.5,"review_count":96,"is_open":true,"optional":{"NoiseLevel":"average","BikeParking":"False","WiFi":"free","RestaurantsPriceRange2":"2","RestaurantsGoodForGroups":"True","HasTV":"True","GoodForKids":"False","RestaurantsDelivery":"False","BusinessParking":"{garage: False, street: True, validated: False, lot: False, valet: False}","OutdoorSeating":"False","RestaurantsReservations":"True","RestaurantsTakeOut":"True","RestaurantsAttire":"casual","Caters":"True","Alcohol":"full_bar","Music":"{dj: False, background_music: False, no_music: False, jukebox: False, live: False, video: False, karaoke: False}","Ambience":"{touristy: False, hipster: None, romantic: False, intimate: False, trendy: None, upscale: False, classy: False, casual: True}","BestNights":"{monday: True, tuesday: True, friday: True, wednesday: False, thursday: False, sunday: False, saturday: False}","GoodForDancing":"False","GoodForMeal":"{dessert: False, latenight: True, lunch: None, dinner: True, brunch: False, breakfast: False}"},"categories":["American (Traditional)"," Pubs"," Tapas Bars"," Restaurants"," Nightlife"," Bars"],"hours":{"Monday":"11:0-0:0","Tuesday":"11:0-0:0","Wednesday":"11:0-0:0","Thursday":"11:0-2:0","Friday":"11:0-2:0","Saturday":"11:0-2:0","Sunday":"15:0-0:0"}}
{"item_id":"TTUsGHhMch_hW03be2H0oA","name":"Acajutla","address":"11302 107 Ave NW","city":"Edmonton","state":"AB","postal_code":"T5H 0Y3","latitude":53.5515737992,"longitude":-113.516133992,"stars":3.5,"review_count":42,"is_open":true,"optional":{"GoodForKids":"True","RestaurantsGoodForGroups":"True","NoiseLevel":"quiet","RestaurantsAttire":"casual","RestaurantsReservations":"True","RestaurantsTakeOut":"True","RestaurantsDelivery":"False","WiFi":"no","BusinessParking":"{garage: False, street: True, validated: False, lot: True, valet: False}","OutdoorSeating":"False","BikeParking":"True","RestaurantsPriceRange2":"2","Alcohol":"beer_and_wine","GoodForMeal":"{dessert: False, latenight: False, lunch: True, dinner: True, brunch: False, breakfast: False}","Caters":"False","HasTV":"True","Ambience":"{touristy: False, hipster: False, romantic: False, intimate: False, trendy: False, upscale: False, classy: True, casual: True}","RestaurantsTableService":"True"},"categories":["Restaurants"," Salvadoran"," Mexican"," Latin American"],"hours":{"Wednesday":"11:0-20:0","Thursday":"11:0-20:0","Friday":"11:0-22:0","Saturday":"12:0-22:0","Sunday":"12:0-20:0"}}
{"item_id":"UqMcnY7B2WbvkC7DDnTCDw","name":"Villa Bistro","address":"11520 100 Avenue","city":"Edmonton","state":"AB","postal_code":"T5K 0J7","latitude":53.5391766,"longitude":-113.5207561,"stars":4.5,"review_count":19,"is_open":true,"optional":{"OutdoorSeating":"True","RestaurantsReservations":"True","Caters":"True","RestaurantsTakeOut":"True","RestaurantsTableService":"True","RestaurantsDelivery":"True","HappyHour":"True","Ambience":"{touristy: False, hipster: False, romantic: False, intimate: False, trendy: False, upscale: False, classy: False, casual: False}","WiFi":"free","WheelchairAccessible":"True","BusinessParking":"{garage: True, street: False, validated: False, lot: False, valet: False}","HasTV":"True"},"categories":["Pizza"," Breakfast & Brunch"," Modern European"," Restaurants"," Italian"],"hours":{"Monday":"11:30-21:0","Tuesday":"11:30-21:0","Wednesday":"11:30-21:0","Thursday":"11:30-21:0","Friday":"11:30-22:0","Saturday":"10:0-22:0","Sunday":"10:0-21:0"}}
{"item_id":"UwAqOh7QDJz9m9scQxH9iA","name":"Panago Pizza","address":"114, 6655 - 178th Street","city":"Edmonton","state":"AB","postal_code":"T5T 4J5","latitude":53.4999118,"longitude":-113.6296212,"stars":4.5,"review_count":6,"is_open":true,"optional":{"OutdoorSeating":"False","GoodForKids":"True","RestaurantsDelivery":"True","BusinessParking":"{garage: False, street: False, validated: False, lot: False, valet: False}","RestaurantsAttire":"casual","RestaurantsPriceRange2":"1","RestaurantsGoodForGroups":"False","WiFi":"no","RestaurantsTakeOut":"True","RestaurantsReservations":"False"},"categories":["Food"," Pizza"," Restaurants"," Salad"," Food Delivery Services"," Chicken Wings"],"hours":{"Monday":"11:0-0:0","Tuesday":"11:0-0:0","Wednesday":"11:0-0:0","Thursday":"11:0-0:0","Friday":"11:0-1:0","Saturday":"11:0-1:0","Sunday":"11:0-0:0"}}
{"item_id":"WSllV7Nl13wskOFWjh-BbA","name":"Bountiful Farmers Market","address":"3696 97 Street","city":"Edmonton","state":"AB","postal_code":"T6E 5S8","latitude":53.4720691,"longitude":-113.4805395,"stars":4.5,"review_count":16,"is_open":true,"optional":{"RestaurantsPriceRange2":"2","BusinessParking":"{garage: False, street: True, validated: False, lot: True, valet: False}","RestaurantsTakeOut":"True","RestaurantsDelivery":"True","WheelchairAccessible":"True","BikeParking":"True","Caters":"False"},"categories":["Specialty Food"," Food"," Fruits & Veggies"," Restaurants"," Pop-Up Restaurants"," Grocery"," Farmers Market"],"hours":{"Monday":"0:0-0:0","Friday":"10:0-16:0","Saturday":"9:0-17:0","Sunday":"10:0-16:0"}}
{"item_id":"WqxxEbwfz1xXn89jYBuQUQ","name":"Burger Baron","address":"7920 118 Avenue NW","city":"Edmonton","state":"AB","postal_code":"T5B 0R6","latitude":53.570761,"longitude":-113.4636068,"stars":4.5,"review_count":11,"is_open":true,"optional":{"RestaurantsReservations":"False","RestaurantsGoodForGroups":"True","RestaurantsAttire":"casual","GoodForKids":"True","RestaurantsPriceRange2":"1","Alcohol":"none","OutdoorSeating":"True","WiFi":"no","BusinessParking":"{garage: False, street: False, validated: False, lot: True, valet: False}","Caters":"False","NoiseLevel":"average","HasTV":"True","RestaurantsDelivery":"True","Ambience":"{romantic: False, intimate: False, classy: False, upscale: False, touristy: False, trendy: False, casual: False}","RestaurantsTakeOut":"True","BikeParking":"False"},"categories":["Burgers"," Restaurants"],"hours":{"Monday":"11:0-21:0","Tuesday":"11:0-21:0","Wednesday":"11:0-21:0","Thursday":"11:0-21:0","Friday":"11:0-21:0","Saturday":"11:0-21:0"}}
{"item_id":"YSmh3UwoCPzoLytbYKYBLw","name":"Barbecue King City","address":"10606 - 97 Street","city":"Edmonton","state":"AB","postal_code":"T5H 2L6","latitude":53.550455,"longitude":-113.489228,"stars":4.5,"review_count":6,"is_open":true,"optional":{"WiFi":"no","RestaurantsTakeOut":"True","RestaurantsGoodForGroups":"True","BusinessParking":"{garage: False, street: False, validated: False, lot: False, valet: False}","Ambience":"{romantic: False, intimate: False, classy: False, hipster: False, divey: False, touristy: False, trendy: False, upscale: False, casual: False}","BikeParking":"True","OutdoorSeating":"False","RestaurantsAttire":"casual","HasTV":"True","RestaurantsReservations":"False","GoodForKids":"True","Caters":"False","RestaurantsDelivery":"False","NoiseLevel":"average","Alcohol":"none","RestaurantsPriceRange2":"1","GoodForMeal":"{dessert: False, latenight: False, lunch: False, dinner: False, brunch: False, breakfast: False}"},"categories":["Food"," Specialty Food"," Meat Shops"," Chinese"," Barbeque"," Restaurants"],"hours":{"Monday":"11:0-19:0","Tuesday":"11:0-19:0","Wednesday":"11:0-19:0","Friday":"11:0-19:0","Saturday":"11:0-19:0","Sunday":"11:0-19:0"}}
{"item_id":"_v8Ccd70N6uXw8muQeyhOA","name":"Moxie's Grill & Bar","address":"13551 St Albert Trail","city":"Edmonton","state":"AB","postal_code":"T5L 5E7","latitude":53.5978212,"longitude":-113.5706935,"stars":3.5,"review_count":52,"is_open":true,"optional":{"HasTV":"True","NoiseLevel":"average","RestaurantsAttire":"casual","RestaurantsGoodForGroups":"True","OutdoorSeating":"True","BusinessParking":"{garage: False, street: False, validated: False, lot: True, valet: False}","Ambience":"{romantic: False, intimate: False, classy: False, hipster: False, divey: False, touristy: False, trendy: False, upscale: False, casual: True}","Alcohol":"full_bar","RestaurantsDelivery":"False","Caters":"False","RestaurantsReservations":"True","BikeParking":"True","RestaurantsTakeOut":"True","GoodForMeal":"{dessert: False, latenight: False, lunch: False, dinner: True, brunch: False, breakfast: False}","HappyHour":"True","WiFi":"free","RestaurantsPriceRange2":"2","Music":"{dj: False, background_music: False, no_music: False, jukebox: False, live: False, video: False, karaoke: False}","GoodForKids":"True"},"categories":["Restaurants"," Canadian (New)"," Steakhouses"," Nightlife"," American (New)"," American (Traditional)"," Bars"," Lounges"],"hours":{"Monday":"0:0-0:0","Tuesday":"11:0-0:0","Wednesday":"11:0-0:0","Thursday":"11:0-0:0","Friday":"11:0-1:0","Saturday":"11:0-1:0","Sunday":"10:0-22:0"}}
{"item_id":"a24bmNPatJARqO1H4QnWgQ","name":"Blue Quill Chinese Food","address":"2821 116 Street NW","city":"Edmonton","state":"AB","postal_code":"T6J 4R6","latitude":53.4604772,"longitude":-113.5313926,"stars":3.0,"review_count":26,"is_open":true,"optional":{"Alcohol":"full_bar","RestaurantsAttire":"casual","GoodForKids":"True","NoiseLevel":"quiet","RestaurantsTakeOut":"True","OutdoorSeating":"False","RestaurantsPriceRange2":"2","RestaurantsGoodForGroups":"True","Caters":"False","RestaurantsDelivery":"True","RestaurantsReservations":"False","BusinessParking":"{garage: False, street: False, validated: False, lot: True, valet: False}","Ambience":"{romantic: False, intimate: False, classy: False, hipster: False, divey: False, touristy: False, trendy: False, upscale: False, casual: True}","BikeParking":"True","WiFi":"no","HasTV":"True"},"categories":["Restaurants"," Chinese"],"hours":{"Monday":"15:30-23:0","Tuesday":"15:30-23:0","Wednesday":"15:30-23:0","Thursday":"15:30-23:0","Friday":"15:30-0:0","Saturday":"15:30-0:0","Sunday":"15:30-23:0"}}
{"item_id":"d8tLbQ9o3aVdOLgueJtYXw","name":"Jay Bee's Diner","address":"3633 118 Avenue NW","city":"Edmonton","state":"AB","postal_code":"T5W 0Z3","latitude":53.570187,"longitude":-113.39821,"stars":3.5,"review_count":37,"is_open":true,"optional":{"NoiseLevel":"average","Ambience":"{touristy: False, hipster: False, romantic: False, intimate: False, trendy: False, upscale: False, classy: False, casual: True}","GoodForKids":"True","BusinessParking":"{garage: False, street: True, validated: False, lot: True, valet: False}","RestaurantsGoodForGroups":"True","RestaurantsAttire":"casual","RestaurantsReservations":"True","HasTV":"True","RestaurantsTakeOut":"True","RestaurantsTableService":"True","OutdoorSeating":"True","WheelchairAccessible":"True","WiFi":"free","BikeParking":"True","Alcohol":"beer_and_wine","DogsAllowed":"False","HappyHour":"False","RestaurantsPriceRange2":"2","RestaurantsDelivery":"True","Caters":"True"},"categories":["Diners"," Restaurants"," Breakfast & Brunch"," American (New)"," Canadian (New)"],"hours":{"Monday":"7:30-20:0","Tuesday":"7:30-20:0","Wednesday":"7:30-20:0","Thursday":"7:30-20:0","Friday":"7:30-20:0","Saturday":"7:30-20:0","Sunday":"7:30-20:0"}}
{"item_id":"eJFw8xWcqyAno0SclR4uzg","name":"Madison's Grill","address":"10053 Jasper Avenue NW","city":"Edmonton","state":"AB","postal_code":"T5J 1S5","latitude":53.5407845,"longitude":-113.4922256,"stars":4.0,"review_count":51,"is_open":true,"optional":{"RestaurantsReservations":"True","RestaurantsAttire":"dressy","Alcohol":"full_bar","RestaurantsGoodForGroups":"True","RestaurantsPriceRange2":"3","BikeParking":"True","HasTV":"True","RestaurantsDelivery":"False","GoodForKids":"False","RestaurantsTakeOut":"False","BusinessParking":"{garage: False, street: True, validated: False, lot: False, valet: False}","NoiseLevel":"quiet","Caters":"True","OutdoorSeating":"True","Ambience":"{touristy: False, hipster: False, romantic: True, intimate: False, trendy: False, upscale: True, classy: True, casual: False}","HappyHour":"True","GoodForMeal":"{dessert: False, latenight: False, lunch: False, dinner: True, brunch: False, breakfast: False}"},"categories":["American (New)"," Restaurants"," Canadian (New)"," Breakfast & Brunch"],"hours":{"Monday":"7:0-22:0","Tuesday":"7:0-22:0","Wednesday":"7:0-22:0","Thursday":"7:0-22:0","Friday":"7:0-22:0","Saturday":"8:0-22:0","Sunday":"8:0-21:0"}}
{"item_id":"fgIAN_Y-hgPq6E-MPZk8vg","name":"Panago Pizza","address":"11152 Ellerslie Road SW","city":"Edmonton","state":"AB","postal_code":"T6W 1A2","latitude":53.4263416,"longitude":-113.5188169,"stars":3.5,"review_count":7,"is_open":true,"optional":{"BusinessParking":"{garage: False, street: False, validated: False, lot: False, valet: False}","Ambience":"{romantic: False, intimate: False, classy: False, hipster: False, touristy: False, trendy: False, upscale: False, casual: False}","Alcohol":"none","RestaurantsPriceRange2":"2","OutdoorSeating":"False","NoiseLevel":"quiet","WiFi":"no","Caters":"False","RestaurantsTakeOut":"True","RestaurantsAttire":"casual","BikeParking":"True","RestaurantsDelivery":"True","RestaurantsReservations":"True","RestaurantsGoodForGroups":"False","GoodForKids":"True","HasTV":"True"},"categories":["Chicken Wings"," Pizza"," Salad"," Food"," Food Delivery Services"," Restaurants"],"hours":{"Monday":"11:0-0:0","Tuesday":"11:0-0:0","Wednesday":"11:0-0:0","Thursday":"11:0-0:0","Friday":"11:0-1:0","Saturday":"11:0-1:0","Sunday":"11:0-0:0"}}
{"item_id":"ivqoS7vO__2-rerN_IjZmA","name":"Irie Foods","address":"2807 Mill Woods Road NW","city":"Edmonton","state":"AB","postal_code":"T6K 4A9","latitude":53.4591,"longitude":-113.44753,"stars":4.0,"review_count":21,"is_open":true,"optional":{"RestaurantsPriceRange2":"2","RestaurantsGoodForGroups":"False","RestaurantsTakeOut":"True","RestaurantsAttire":"casual","RestaurantsReservations":"False","HasTV":"True","GoodForMeal":"{dessert: False, latenight: False, lunch: False, dinner: False, brunch: False, breakfast: False}","GoodForKids":"True","OutdoorSeating":"False","RestaurantsDelivery":"True","WiFi":"free","Ambience":"{hipster: None, casual: None, touristy: None, trendy: None, intimate: False, romantic: False, classy: None, upscale: None}","BusinessParking":"{garage: False, street: False, validated: False, lot: False, valet: False}"},"categories":["Restaurants"," Caribbean"],"hours":{"Monday":"11:0-20:0","Tuesday":"11:0-20:0","Wednesday":"11:0-20:0","Thursday":"11:0-20:0","Friday":"11:0-20:0","Saturday":"12:0-20:0"}}
{"item_id":"jZoeTGRfhG9n_Jo6VMqwxw","name":"Sushi Wasabi","address":"5714 111 Street NW","city":"Edmonton","state":"AB","postal_code":"T6H 3G1","latitude":53.4945772799,"longitude":-113.517946463,"stars":4.0,"review_count":57,"is_open":true,"optional":{"Alcohol":"beer_and_wine","RestaurantsReservations":"True","RestaurantsAttire":"casual","BikeParking":"True","OutdoorSeating":"False","RestaurantsGoodForGroups":"True","WiFi":"free","NoiseLevel":"average","RestaurantsDelivery":"False","RestaurantsTakeOut":"True","RestaurantsPriceRange2":"2","GoodForKids":"True","HasTV":"True","Ambience":"{romantic: False, intimate: False, classy: False, hipster: False, divey: False, touristy: False, trendy: False, upscale: False, casual: True}","BusinessParking":"{garage: False, street: False, validated: False, lot: True, valet: False}","GoodForMeal":"{dessert: False, latenight: False, lunch: None, dinner: True, brunch: False, breakfast: False}","Caters":"False"},"categories":["Restaurants"," Sushi Bars"," Japanese"],"hours":{"Tuesday":"17:0-21:0","Wednesday":"17:0-21:0","Thursday":"17:0-21:0","Friday":"17:0-21:30","Saturday":"17:0-21:30","Sunday":"17:0-20:30"}}
{"item_id":"l8uzbLGk9CLjElcWGyBZ0Q","name":"Transcend Coffee - Ritchie Market","address":"9570 76 Avenue NW, Ste 100","city":"Edmonton","state":"AB","postal_code":"T6C 0K2","latitude":53.51263,"longitude":-113.476381,"stars":4.5,"review_count":32,"is_open":true,"optional":{"Alcohol":"none","RestaurantsTakeOut":"True","RestaurantsPriceRange2":"2","BusinessParking":"{garage: False, street: True, validated: False, lot: False, valet: False}","RestaurantsAttire":"casual","Ambience":"{touristy: False, hipster: False, romantic: False, intimate: False, trendy: False, upscale: False, classy: False, casual: False}","WiFi":"free","HasTV":"False","RestaurantsTableService":"False","Caters":"False","OutdoorSeating":"True","NoiseLevel":"loud","BikeParking":"True","RestaurantsDelivery":"False"},"categories":["Food"," Cafes"," Coffee & Tea"," Restaurants"],"hours":{"Monday":"7:0-21:0","Tuesday":"7:0-21:0","Wednesday":"7:0-21:0","Thursday":"7:0-21:0","Friday":"7:0-21:0","Saturday":"8:0-21:0","Sunday":"8:0-18:0"}}
{"item_id":"lPPYZr1_jx0XeW-xR9WJtw","name":"DOSC","address":"10190 - 104 Street NW, Main Floor","city":"Edmonton","state":"AB","postal_code":"T5J 1A7","latitude":53.5428720873,"longitude":-113.4995122836,"stars":4.0,"review_count":87,"is_open":true,"optional":{"RestaurantsReservations":"True","RestaurantsTakeOut":"True","RestaurantsTableService":"True","Ambience":"{touristy: False, hipster: False, romantic: False, intimate: False, trendy: False, upscale: False, classy: True, casual: False}","CoatCheck":"True","Smoking":"no","GoodForMeal":"{dessert: False, latenight: False, lunch: False, dinner: False, brunch: False, breakfast: False}","GoodForKids":"True","ByAppointmentOnly":"False","RestaurantsGoodForGroups":"True","DogsAllowed":"True","WiFi":"free","RestaurantsDelivery":"True","BikeParking":"True","WheelchairAccessible":"False","BestNights":"{monday: False, tuesday: False, friday: True, wednesday: False, thursday: False, sunday: False, saturday: False}","Music":"{dj: False, live: None, jukebox: None, video: False, background_music: False, karaoke: None, no_music: False}","OutdoorSeating":"False","BYOB":"False","HappyHour":"True","Alcohol":"full_bar","HasTV":"False","BusinessParking":"{garage: False, street: True, validated: False, lot: False, valet: False}"},"categories":["Bars"," Cocktail Bars"," Coffee & Tea"," Food"," Restaurants"," Cafes"," Steakhouses"," Nightlife"," Tapas\/Small Plates"],"hours":{"Monday":"8:0-23:0","Tuesday":"8:0-23:0","Wednesday":"8:0-23:0","Thursday":"8:0-23:0","Friday":"8:0-23:0","Saturday":"8:0-23:0","Sunday":"8:0-23:0"}}
{"item_id":"qS4CaO_u_vMrTl31XJto1A","name":"Szechuan Paramount Restaurant","address":"12901 97 Street NW","city":"Edmonton","state":"AB","postal_code":"T5E 4C2","latitude":53.5878652,"longitude":-113.4915257,"stars":3.0,"review_count":25,"is_open":true,"optional":{"Alcohol":"beer_and_wine","RestaurantsAttire":"casual","BusinessParking":"{garage: False, street: False, validated: False, lot: True, valet: False}","Ambience":"{touristy: False, hipster: False, romantic: False, intimate: False, trendy: False, upscale: False, classy: False, casual: True}","RestaurantsTakeOut":"True","NoiseLevel":"average","RestaurantsDelivery":"True","OutdoorSeating":"False","RestaurantsGoodForGroups":"True","GoodForKids":"True","RestaurantsReservations":"True","BikeParking":"False","WiFi":"no","GoodForMeal":"{dessert: False, latenight: False, lunch: True, dinner: True, brunch: False, breakfast: False}","RestaurantsPriceRange2":"2","HasTV":"True"},"categories":["Buffets"," Restaurants"," Chinese"],"hours":{"Monday":"11:0-22:0","Tuesday":"11:0-22:0","Wednesday":"11:0-22:0","Thursday":"11:0-22:0","Friday":"11:0-22:0","Saturday":"16:0-22:0","Sunday":"12:0-22:0"}}
{"item_id":"wqj6JquckEOs1h7rs376kQ","name":"Pho King","address":"9103 118th Avenue","city":"Edmonton","state":"AB","postal_code":"T5B 0T9","latitude":53.570101,"longitude":-113.481466,"stars":4.0,"review_count":58,"is_open":true,"optional":{"RestaurantsPriceRange2":"2","RestaurantsTakeOut":"True","OutdoorSeating":"False","WiFi":"free","RestaurantsAttire":"casual","Alcohol":"none","NoiseLevel":"average","Caters":"False","Ambience":"{romantic: False, intimate: False, classy: False, hipster: False, divey: False, touristy: False, trendy: False, upscale: False, casual: True}","RestaurantsGoodForGroups":"True","HasTV":"True","RestaurantsDelivery":"True","RestaurantsReservations":"True","BusinessParking":"{garage: False, street: True, validated: False, lot: False, valet: False}","GoodForMeal":"{dessert: False, latenight: False, lunch: True, dinner: True, brunch: None, breakfast: False}","GoodForKids":"True","BikeParking":"True"},"categories":["Restaurants"," Vietnamese"],"hours":{"Monday":"0:0-0:0","Tuesday":"10:0-21:0","Wednesday":"10:0-21:0","Thursday":"10:0-21:0","Friday":"10:0-21:0","Saturday":"10:0-21:0","Sunday":"12:0-18:0"}}
{"item_id":"yDriUh65Wpx1HnTmXln9nw","name":"Subway","address":"LongSt Shopping Centre, 11323 104th Ave","city":"Edmonton","state":"AB","postal_code":"T5K 2S1","latitude":53.5458546,"longitude":-113.5165904,"stars":3.0,"review_count":9,"is_open":true,"optional":{"RestaurantsReservations":"False","Caters":"True","GoodForKids":"True","BikeParking":"True","RestaurantsPriceRange2":"1","RestaurantsGoodForGroups":"True","OutdoorSeating":"False","RestaurantsAttire":"formal","WiFi":"free","Alcohol":"none","RestaurantsDelivery":"False","RestaurantsTakeOut":"True","Ambience":"{romantic: False, intimate: False, classy: False, hipster: False, divey: False, touristy: False, trendy: False, upscale: False, casual: True}","NoiseLevel":"quiet","HasTV":"True","BusinessParking":"{garage: False, street: False, validated: False, lot: True, valet: False}"},"categories":["Restaurants"," Fast Food"," Sandwiches"],"hours":{"Monday":"7:0-0:0","Tuesday":"7:0-0:0","Wednesday":"7:0-0:0","Thursday":"7:0-0:0","Friday":"7:0-2:0","Saturday":"9:0-2:0","Sunday":"9:0-23:0"}}
{"item_id":"yLIn3po-fKb0T3UIoJdiyQ","name":"Famoso Neapolitan Pizzeria","address":"11750 Jasper Avenue NW","city":"Edmonton","state":"AB","postal_code":"T5K 0N3","latitude":53.54153,"longitude":-113.5247,"stars":4.0,"review_count":117,"is_open":true,"optional":{"NoiseLevel":"average","GoodForKids":"True","RestaurantsPriceRange2":"2","RestaurantsAttire":"casual","RestaurantsReservations":"True","BusinessParking":"{garage: False, street: False, validated: False, lot: True, valet: False}","OutdoorSeating":"True","RestaurantsDelivery":"True","HasTV":"True","RestaurantsGoodForGroups":"True","RestaurantsTakeOut":"True","WiFi":"free","BikeParking":"True","HappyHour":"True","RestaurantsTableService":"True","Ambience":"{romantic: False, intimate: False, classy: False, hipster: False, divey: False, touristy: False, trendy: False, upscale: False, casual: True}","Caters":"False","WheelchairAccessible":"True","GoodForMeal":"{dessert: False, latenight: False, lunch: True, dinner: True, brunch: False, breakfast: False}","DogsAllowed":"False","Alcohol":"beer_and_wine","Corkage":"True"},"categories":["Italian"," Restaurants"," Pizza"],"hours":{"Monday":"12:0-21:0","Tuesday":"12:0-21:0","Wednesday":"12:0-21:0","Thursday":"12:0-21:0","Friday":"12:0-22:0","Saturday":"12:0-22:0","Sunday":"12:0-21:0"}}
